{"timestamp": 1775538420.6125042, "datetime": "2026-04-07T09:07:00", "payload": {"lat": 0.0, "lon": 0.0, "alt": 0.0, "alt_abs": 0.0, "home_lat": null, "home_lon": null, "heading": 0.0, "roll": 0.0, "pitch": 0.0, "yaw": 0.0, "gps": 0, "volt": 0.0, "battery_remaining": 100, "vel": 0.0, "mode": "MANUAL", "home_alt_abs": null, "link_key": "serial-1", "link_label": "COM6@115200", "link_kind": "serial"}}
{"timestamp": 1775538420.6445613, "datetime": "2026-04-07T09:07:00", "payload": {"lat": 0.0, "lon": 0.0, "alt": 0.0, "alt_abs": 0.0, "home_lat": null, "home_lon": null, "heading": 0.0, "roll": 0.0, "pitch": 0.0, "yaw": 0.0, "gps": 0, "volt": 0.0, "battery_remaining": 100, "vel": 0.0, "mode": "MANUAL", "home_alt_abs": null, "link_key": "serial-1", "link_label": "COM6@115200", "link_kind": "serial"}}
{"timestamp": 1775538420.6765897, "datetime": "2026-04-07T09:07:00", "payload": {"lat": 0.0, "lon": 0.0, "alt": 0.0, "alt_abs": 0.0, "home_lat": null, "home_lon": null, "heading": 0.0, "roll": 0.0, "pitch": 0.0, "yaw": 0.0, "gps": 0, "volt": 0.0, "battery_remaining": 100, "vel": 0.0, "mode": "MANUAL", "home_alt_abs": null, "link_key": "serial-1", "link_label": "COM6@115200", "link_kind": "serial"}}
{"timestamp": 1775538420.7098913, "datetime": "2026-04-07T09:07:00", "payload": {"lat": 0.0, "lon": 0.0, "alt": -12.958, "alt_abs": -12.95, "home_lat": null, "home_lon": null, "heading": 105.86, "roll": 0.0, "pitch": 0.0, "yaw": 105.86, "gps": 0, "volt": 0.0, "battery_remaining": 100, "vel": 0.0, "mode": "MANUAL", "home_alt_abs": null, "link_key": "serial-1", "link_label": "COM6@115200", "link_kind": "serial"}}
{"timestamp": 1775538420.7412918, "datetime": "2026-04-07T09:07:00", "payload": {"lat": 0.0, "lon": 0.0, "alt": -12.958, "alt_abs": -12.95, "home_lat": null, "home_lon": null, "heading": 105.86, "roll": 0.0, "pitch": 0.0, "yaw": 105.86, "gps": 0, "volt": 0.0, "battery_remaining": 100, "vel": 0.0, "mode": "MANUAL", "home_alt_abs": null, "link_key": "serial-1", "link_label": "COM6@115200", "link_kind": "serial"}}
{"timestamp": 1775538420.7742388, "datetime": "2026-04-07T09:07:00", "payload": {"lat": 0.0, "lon": 0.0, "alt": -12.958, "alt_abs": -12.95, "home_lat": null, "home_lon": null, "heading": 105.86, "roll": 0.0, "pitch": 0.0, "yaw": 105.86, "gps": 0, "volt": 0.0, "battery_remaining": 100, "vel": 0.0, "mode": "MANUAL", "home_alt_abs": null, "link_key": "serial-1", "link_label": "COM6@115200", "link_kind": "serial"}}
{"timestamp": 1775538420.8058245, "datetime": "2026-04-07T09:07:00", "payload": {"lat": 0.0, "lon": 0.0, "alt": -12.958, "alt_abs": -12.95, "home_lat": null, "home_lon": null, "heading": 105.86, "roll": 0.0, "pitch": 0.0, "yaw": 105.86, "gps": 0, "volt": 0.0, "battery_remaining": 100, "vel": 0.0, "mode": "MANUAL", "home_alt_abs": null, "link_key": "serial-1", "link_label": "COM6@115200", "link_kind": "serial"}}
{"timestamp": 1775538420.836197, "datetime": "2026-04-07T09:07:00", "payload": {"lat": 0.0, "lon": 0.0, "alt": -12.958, "alt_abs": -12.95, "home_lat": null, "home_lon": null, "heading": 105.86, "roll": 0.0, "pitch": 0.0, "yaw": 105.86, "gps": 0, "volt": 0.0, "battery_remaining": 100, "vel": 0.0, "mode": "MANUAL", "home_alt_abs": null, "link_key": "serial-1", "link_label": "COM6@115200", "link_kind": "serial"}}
{"timestamp": 1775538420.8667765, "datetime": "2026-04-07T09:07:00", "payload": {"lat": 0.0, "lon": 0.0, "alt": -12.958, "alt_abs": -12.95, "home_lat": null, "home_lon": null, "heading": 105.86, "roll": 0.0, "pitch": 0.0, "yaw": 105.86, "gps": 0, "volt": 0.0, "battery_remaining": 100, "vel": 0.0, "mode": "MANUAL", "home_alt_abs": null, "link_key": "serial-1", "link_label": "COM6@115200", "link_kind": "serial"}}
{"timestamp": 1775538420.89823, "datetime": "2026-04-07T09:07:00", "payload": {"lat": 0.0, "lon": 0.0, "alt": -12.958, "alt_abs": -12.95, "home_lat": null, "home_lon": null, "heading": 105.86, "roll": 0.0, "pitch": 0.0, "yaw": 105.86, "gps": 0, "volt": 0.0, "battery_remaining": 100, "vel": 0.0, "mode": "MANUAL", "home_alt_abs": null, "link_key": "serial-1", "link_label": "COM6@115200", "link_kind": "serial"}}
{"timestamp": 1775538420.929965, "datetime": "2026-04-07T09:07:00", "payload": {"lat": 0.0, "lon": 0.0, "alt": -12.958, "alt_abs": -12.95, "home_lat": null, "home_lon": null, "heading": 105.86083556865, "roll": -0.6840389630651342, "pitch": 1.3173189484264956, "yaw": 105.86083556865, "gps": 0, "volt": 0.0, "battery_remaining": 100, "vel": 0.0, "mode": "MANUAL", "home_alt_abs": null, "link_key": "serial-1", "link_label": "COM6@115200", "link_kind": "serial"}}
{"timestamp": 1775538420.961014, "datetime": "2026-04-07T09:07:00", "payload": {"lat": 0.0, "lon": 0.0, "alt": -12.949999809265137, "alt_abs": -12.95, "home_lat": null, "home_lon": null, "heading": 105.0, "roll": -0.6840389630651342, "pitch": 1.3173189484264956, "yaw": 105.86083556865, "gps": 0, "volt": 0.0, "battery_remaining": 100, "vel": 0.0, "mode": "MANUAL", "home_alt_abs": null, "link_key": "serial-1", "link_label": "COM6@115200", "link_kind": "serial"}}
{"timestamp": 1775538420.9920917, "datetime": "2026-04-07T09:07:00", "payload": {"lat": 0.0, "lon": 0.0, "alt": -12.949999809265137, "alt_abs": -12.95, "home_lat": null, "home_lon": null, "heading": 105.0, "roll": -0.6840389630651342, "pitch": 1.3173189484264956, "yaw": 105.86083556865, "gps": 0, "volt": 0.0, "battery_remaining": 100, "vel": 0.0, "mode": "MANUAL", "home_alt_abs": null, "link_key": "serial-1", "link_label": "COM6@115200", "link_kind": "serial"}}
{"timestamp": 1775538421.0261421, "datetime": "2026-04-07T09:07:01", "payload": {"lat": 0.0, "lon": 0.0, "alt": -12.949999809265137, "alt_abs": -12.95, "home_lat": null, "home_lon": null, "heading": 105.83764024622863, "roll": -0.6834153347774002, "pitch": 1.3168031624224537, "yaw": 105.83764024622863, "gps": 0, "volt": 0.0, "battery_remaining": 100, "vel": 0.0, "mode": "MANUAL", "home_alt_abs": null, "link_key": "serial-1", "link_label": "COM6@115200", "link_kind": "serial"}}
{"timestamp": 1775538421.0608017, "datetime": "2026-04-07T09:07:01", "payload": {"lat": 0.0, "lon": 0.0, "alt": -12.880000114440918, "alt_abs": -12.95, "home_lat": null, "home_lon": null, "heading": 105.0, "roll": -0.6834153347774002, "pitch": 1.3168031624224537, "yaw": 105.83764024622863, "gps": 0, "volt": 0.0, "battery_remaining": 100, "vel": 0.0, "mode": "MANUAL", "home_alt_abs": null, "link_key": "serial-1", "link_label": "COM6@115200", "link_kind": "serial"}}
{"timestamp": 1775538421.0946934, "datetime": "2026-04-07T09:07:01", "payload": {"lat": 0.0, "lon": 0.0, "alt": -12.880000114440918, "alt_abs": -12.95, "home_lat": null, "home_lon": null, "heading": 105.0, "roll": -0.6834153347774002, "pitch": 1.3168031624224537, "yaw": 105.83764024622863, "gps": 0, "volt": 0.0, "battery_remaining": 100, "vel": 0.0, "mode": "MANUAL", "home_alt_abs": null, "link_key": "serial-1", "link_label": "COM6@115200", "link_kind": "serial"}}
{"timestamp": 1775538421.1258376, "datetime": "2026-04-07T09:07:01", "payload": {"lat": 0.0, "lon": 0.0, "alt": -12.880000114440918, "alt_abs": -12.95, "home_lat": null, "home_lon": null, "heading": 105.83537262342419, "roll": -0.6810711391490578, "pitch": 1.3145171834846152, "yaw": 105.83537262342419, "gps": 0, "volt": 0.0, "battery_remaining": 100, "vel": 0.0, "mode": "MANUAL", "home_alt_abs": null, "link_key": "serial-1", "link_label": "COM6@115200", "link_kind": "serial"}}
{"timestamp": 1775538421.157671, "datetime": "2026-04-07T09:07:01", "payload": {"lat": 0.0, "lon": 0.0, "alt": -12.889999389648438, "alt_abs": -12.95, "home_lat": null, "home_lon": null, "heading": 105.0, "roll": -0.6810711391490578, "pitch": 1.3145171834846152, "yaw": 105.83537262342419, "gps": 0, "volt": 0.0, "battery_remaining": 100, "vel": 0.0, "mode": "MANUAL", "home_alt_abs": null, "link_key": "serial-1", "link_label": "COM6@115200", "link_kind": "serial"}}
{"timestamp": 1775538421.1904113, "datetime": "2026-04-07T09:07:01", "payload": {"lat": 0.0, "lon": 0.0, "alt": -12.889999389648438, "alt_abs": -12.95, "home_lat": null, "home_lon": null, "heading": 105.0, "roll": -0.6810711391490578, "pitch": 1.3145171834846152, "yaw": 105.83537262342419, "gps": 0, "volt": 0.0, "battery_remaining": 100, "vel": 0.0, "mode": "MANUAL", "home_alt_abs": null, "link_key": "serial-1", "link_label": "COM6@115200", "link_kind": "serial"}}
{"timestamp": 1775538421.2219887, "datetime": "2026-04-07T09:07:01", "payload": {"lat": 0.0, "lon": 0.0, "alt": -12.889999389648438, "alt_abs": -12.95, "home_lat": null, "home_lon": null, "heading": 105.81979296192739, "roll": -0.6824366433745315, "pitch": 1.3127892523463076, "yaw": 105.81979296192739, "gps": 0, "volt": 0.0, "battery_remaining": 100, "vel": 0.0, "mode": "MANUAL", "home_alt_abs": null, "link_key": "serial-1", "link_label": "COM6@115200", "link_kind": "serial"}}
{"timestamp": 1775538421.2527127, "datetime": "2026-04-07T09:07:01", "payload": {"lat": 0.0, "lon": 0.0, "alt": -13.049999237060547, "alt_abs": -12.95, "home_lat": null, "home_lon": null, "heading": 105.0, "roll": -0.6824366433745315, "pitch": 1.3127892523463076, "yaw": 105.81979296192739, "gps": 0, "volt": 0.0, "battery_remaining": 100, "vel": 0.0, "mode": "MANUAL", "home_alt_abs": null, "link_key": "serial-1", "link_label": "COM6@115200", "link_kind": "serial"}}
{"timestamp": 1775538421.2842474, "datetime": "2026-04-07T09:07:01", "payload": {"lat": 0.0, "lon": 0.0, "alt": -13.049999237060547, "alt_abs": -12.95, "home_lat": null, "home_lon": null, "heading": 105.0, "roll": -0.6824366433745315, "pitch": 1.3127892523463076, "yaw": 105.81979296192739, "gps": 0, "volt": 0.0, "battery_remaining": 100, "vel": 0.0, "mode": "MANUAL", "home_alt_abs": null, "link_key": "serial-1", "link_label": "COM6@115200", "link_kind": "serial"}}
{"timestamp": 1775538421.3151588, "datetime": "2026-04-07T09:07:01", "payload": {"lat": 0.0, "lon": 0.0, "alt": -13.049999237060547, "alt_abs": -12.95, "home_lat": null, "home_lon": null, "heading": 105.0, "roll": -0.6824366433745315, "pitch": 1.3127892523463076, "yaw": 105.81979296192739, "gps": 0, "volt": 0.0, "battery_remaining": 100, "vel": 0.0, "mode": "MANUAL", "home_alt_abs": null, "link_key": "serial-1", "link_label": "COM6@115200", "link_kind": "serial"}}
{"timestamp": 1775538421.3471808, "datetime": "2026-04-07T09:07:01", "payload": {"lat": 0.0, "lon": 0.0, "alt": -13.058, "alt_abs": -13.05, "home_lat": null, "home_lon": null, "heading": 105.81, "roll": -0.6824366433745315, "pitch": 1.3127892523463076, "yaw": 105.81979296192739, "gps": 0, "volt": 0.0, "battery_remaining": 100, "vel": 0.0, "mode": "MANUAL", "home_alt_abs": null, "link_key": "serial-1", "link_label": "COM6@115200", "link_kind": "serial"}}
{"timestamp": 1775538421.3777463, "datetime": "2026-04-07T09:07:01", "payload": {"lat": 0.0, "lon": 0.0, "alt": -13.058, "alt_abs": -13.05, "home_lat": null, "home_lon": null, "heading": 105.81, "roll": -0.6824366433745315, "pitch": 1.3127892523463076, "yaw": 105.81979296192739, "gps": 0, "volt": 0.0, "battery_remaining": 100, "vel": 0.0, "mode": "MANUAL", "home_alt_abs": null, "link_key": "serial-1", "link_label": "COM6@115200", "link_kind": "serial"}}
{"timestamp": 1775538421.4109855, "datetime": "2026-04-07T09:07:01", "payload": {"lat": 0.0, "lon": 0.0, "alt": -13.058, "alt_abs": -13.05, "home_lat": null, "home_lon": null, "heading": 105.81, "roll": -0.6824366433745315, "pitch": 1.3127892523463076, "yaw": 105.81979296192739, "gps": 0, "volt": 0.0, "battery_remaining": 100, "vel": 0.0, "mode": "MANUAL", "home_alt_abs": null, "link_key": "serial-1", "link_label": "COM6@115200", "link_kind": "serial"}}
{"timestamp": 1775538421.4426255, "datetime": "2026-04-07T09:07:01", "payload": {"lat": 0.0, "lon": 0.0, "alt": -13.058, "alt_abs": -13.05, "home_lat": null, "home_lon": null, "heading": 105.81, "roll": -0.6824366433745315, "pitch": 1.3127892523463076, "yaw": 105.81979296192739, "gps": 0, "volt": 0.0, "battery_remaining": 100, "vel": 0.0, "mode": "MANUAL", "home_alt_abs": null, "link_key": "serial-1", "link_label": "COM6@115200", "link_kind": "serial"}}
{"timestamp": 1775538421.4736164, "datetime": "2026-04-07T09:07:01", "payload": {"lat": 0.0, "lon": 0.0, "alt": -13.058, "alt_abs": -13.05, "home_lat": null, "home_lon": null, "heading": 105.81, "roll": -0.6824366433745315, "pitch": 1.3127892523463076, "yaw": 105.81979296192739, "gps": 0, "volt": 0.0, "battery_remaining": 100, "vel": 0.0, "mode": "MANUAL", "home_alt_abs": null, "link_key": "serial-1", "link_label": "COM6@115200", "link_kind": "serial"}}
{"timestamp": 1775538421.5052118, "datetime": "2026-04-07T09:07:01", "payload": {"lat": 0.0, "lon": 0.0, "alt": -13.058, "alt_abs": -13.05, "home_lat": null, "home_lon": null, "heading": 105.81, "roll": -0.6824366433745315, "pitch": 1.3127892523463076, "yaw": 105.81979296192739, "gps": 0, "volt": 0.0, "battery_remaining": 100, "vel": 0.0, "mode": "MANUAL", "home_alt_abs": null, "link_key": "serial-1", "link_label": "COM6@115200", "link_kind": "serial"}}
{"timestamp": 1775538421.5369298, "datetime": "2026-04-07T09:07:01", "payload": {"lat": 0.0, "lon": 0.0, "alt": -13.058, "alt_abs": -13.05, "home_lat": null, "home_lon": null, "heading": 105.81, "roll": -0.6824366433745315, "pitch": 1.3127892523463076, "yaw": 105.81979296192739, "gps": 0, "volt": 0.0, "battery_remaining": 100, "vel": 0.0, "mode": "MANUAL", "home_alt_abs": null, "link_key": "serial-1", "link_label": "COM6@115200", "link_kind": "serial"}}
{"timestamp": 1775538421.5681794, "datetime": "2026-04-07T09:07:01", "payload": {"lat": 0.0, "lon": 0.0, "alt": -13.058, "alt_abs": -13.05, "home_lat": null, "home_lon": null, "heading": 105.81184945192267, "roll": -0.6823392598180059, "pitch": 1.3093151406580041, "yaw": 105.81184945192267, "gps": 0, "volt": 0.0, "battery_remaining": 100, "vel": 0.0, "mode": "MANUAL", "home_alt_abs": null, "link_key": "serial-1", "link_label": "COM6@115200", "link_kind": "serial"}}
{"timestamp": 1775538421.6012156, "datetime": "2026-04-07T09:07:01", "payload": {"lat": 0.0, "lon": 0.0, "alt": -13.059999465942383, "alt_abs": -13.05, "home_lat": null, "home_lon": null, "heading": 105.0, "roll": -0.6823392598180059, "pitch": 1.3093151406580041, "yaw": 105.81184945192267, "gps": 0, "volt": 0.0, "battery_remaining": 100, "vel": 0.0, "mode": "MANUAL", "home_alt_abs": null, "link_key": "serial-1", "link_label": "COM6@115200", "link_kind": "serial"}}
{"timestamp": 1775538421.6326606, "datetime": "2026-04-07T09:07:01", "payload": {"lat": 0.0, "lon": 0.0, "alt": -13.059999465942383, "alt_abs": -13.05, "home_lat": null, "home_lon": null, "heading": 105.0, "roll": -0.6823392598180059, "pitch": 1.3093151406580041, "yaw": 105.81184945192267, "gps": 0, "volt": 0.0, "battery_remaining": 100, "vel": 0.0, "mode": "MANUAL", "home_alt_abs": null, "link_key": "serial-1", "link_label": "COM6@115200", "link_kind": "serial"}}
{"timestamp": 1775538421.6652265, "datetime": "2026-04-07T09:07:01", "payload": {"lat": 0.0, "lon": 0.0, "alt": -13.059999465942383, "alt_abs": -13.05, "home_lat": null, "home_lon": null, "heading": 105.0, "roll": -0.6823392598180059, "pitch": 1.3093151406580041, "yaw": 105.81184945192267, "gps": 0, "volt": 0.0, "battery_remaining": 100, "vel": 0.0, "mode": "MANUAL", "home_alt_abs": null, "link_key": "serial-1", "link_label": "COM6@115200", "link_kind": "serial"}}
{"timestamp": 1775538421.6970625, "datetime": "2026-04-07T09:07:01", "payload": {"lat": 0.0, "lon": 0.0, "alt": -13.059999465942383, "alt_abs": -13.05, "home_lat": null, "home_lon": null, "heading": 105.0, "roll": -0.6823392598180059, "pitch": 1.3093151406580041, "yaw": 105.81184945192267, "gps": 0, "volt": 0.0, "battery_remaining": 100, "vel": 0.0, "mode": "MANUAL", "home_alt_abs": null, "link_key": "serial-1", "link_label": "COM6@115200", "link_kind": "serial"}}
{"timestamp": 1775538421.7288423, "datetime": "2026-04-07T09:07:01", "payload": {"lat": 0.0, "lon": 0.0, "alt": -13.059999465942383, "alt_abs": -13.05, "home_lat": null, "home_lon": null, "heading": 105.0, "roll": -0.6823392598180059, "pitch": 1.3093151406580041, "yaw": 105.81184945192267, "gps": 0, "volt": 0.0, "battery_remaining": 100, "vel": 0.0, "mode": "MANUAL", "home_alt_abs": null, "link_key": "serial-1", "link_label": "COM6@115200", "link_kind": "serial"}}
{"timestamp": 1775538421.7606409, "datetime": "2026-04-07T09:07:01", "payload": {"lat": 0.0, "lon": 0.0, "alt": -13.059999465942383, "alt_abs": -13.05, "home_lat": null, "home_lon": null, "heading": 105.0, "roll": -0.6823392598180059, "pitch": 1.3093151406580041, "yaw": 105.81184945192267, "gps": 0, "volt": 0.0, "battery_remaining": 100, "vel": 0.0, "mode": "MANUAL", "home_alt_abs": null, "link_key": "serial-1", "link_label": "COM6@115200", "link_kind": "serial"}}
{"timestamp": 1775538421.7944512, "datetime": "2026-04-07T09:07:01", "payload": {"lat": 0.0, "lon": 0.0, "alt": -13.059999465942383, "alt_abs": -13.05, "home_lat": null, "home_lon": null, "heading": 105.0, "roll": -0.6823392598180059, "pitch": 1.3093151406580041, "yaw": 105.81184945192267, "gps": 0, "volt": 0.0, "battery_remaining": 100, "vel": 0.0, "mode": "MANUAL", "home_alt_abs": null, "link_key": "serial-1", "link_label": "COM6@115200", "link_kind": "serial"}}
{"timestamp": 1775538421.8287466, "datetime": "2026-04-07T09:07:01", "payload": {"lat": 0.0, "lon": 0.0, "alt": -13.059999465942383, "alt_abs": -13.05, "home_lat": null, "home_lon": null, "heading": 105.0, "roll": -0.6823392598180059, "pitch": 1.3093151406580041, "yaw": 105.81184945192267, "gps": 0, "volt": 0.0, "battery_remaining": 100, "vel": 0.0, "mode": "MANUAL", "home_alt_abs": null, "link_key": "serial-1", "link_label": "COM6@115200", "link_kind": "serial"}}
{"timestamp": 1775538421.8632827, "datetime": "2026-04-07T09:07:01", "payload": {"lat": 0.0, "lon": 0.0, "alt": -13.059999465942383, "alt_abs": -13.05, "home_lat": null, "home_lon": null, "heading": 105.0, "roll": -0.6823392598180059, "pitch": 1.3093151406580041, "yaw": 105.81184945192267, "gps": 0, "volt": 0.0, "battery_remaining": 100, "vel": 0.0, "mode": "MANUAL", "home_alt_abs": null, "link_key": "serial-1", "link_label": "COM6@115200", "link_kind": "serial"}}
{"timestamp": 1775538421.897607, "datetime": "2026-04-07T09:07:01", "payload": {"lat": 0.0, "lon": 0.0, "alt": -13.059999465942383, "alt_abs": -13.05, "home_lat": null, "home_lon": null, "heading": 105.0, "roll": -0.6823392598180059, "pitch": 1.3093151406580041, "yaw": 105.81184945192267, "gps": 0, "volt": 0.0, "battery_remaining": 100, "vel": 0.0, "mode": "MANUAL", "home_alt_abs": null, "link_key": "serial-1", "link_label": "COM6@115200", "link_kind": "serial"}}
{"timestamp": 1775538421.931819, "datetime": "2026-04-07T09:07:01", "payload": {"lat": 0.0, "lon": 0.0, "alt": -13.059999465942383, "alt_abs": -13.05, "home_lat": null, "home_lon": null, "heading": 105.0, "roll": -0.6823392598180059, "pitch": 1.3093151406580041, "yaw": 105.81184945192267, "gps": 0, "volt": 0.0, "battery_remaining": 100, "vel": 0.0, "mode": "MANUAL", "home_alt_abs": null, "link_key": "serial-1", "link_label": "COM6@115200", "link_kind": "serial"}}
{"timestamp": 1775538421.9661393, "datetime": "2026-04-07T09:07:01", "payload": {"lat": 0.0, "lon": 0.0, "alt": -13.059999465942383, "alt_abs": -13.05, "home_lat": null, "home_lon": null, "heading": 105.0, "roll": -0.6823392598180059, "pitch": 1.3093151406580041, "yaw": 105.81184945192267, "gps": 0, "volt": 0.0, "battery_remaining": 100, "vel": 0.0, "mode": "MANUAL", "home_alt_abs": null, "link_key": "serial-1", "link_label": "COM6@115200", "link_kind": "serial"}}
{"timestamp": 1775538421.9991255, "datetime": "2026-04-07T09:07:01", "payload": {"lat": 0.0, "lon": 0.0, "alt": -13.059999465942383, "alt_abs": -13.05, "home_lat": null, "home_lon": null, "heading": 105.0, "roll": -0.6823392598180059, "pitch": 1.3093151406580041, "yaw": 105.81184945192267, "gps": 0, "volt": 0.0, "battery_remaining": 100, "vel": 0.0, "mode": "MANUAL", "home_alt_abs": null, "link_key": "serial-1", "link_label": "COM6@115200", "link_kind": "serial"}}
{"timestamp": 1775538422.0329268, "datetime": "2026-04-07T09:07:02", "payload": {"lat": 0.0, "lon": 0.0, "alt": -13.059999465942383, "alt_abs": -13.05, "home_lat": null, "home_lon": null, "heading": 105.0, "roll": -0.6823392598180059, "pitch": 1.3093151406580041, "yaw": 105.81184945192267, "gps": 0, "volt": 0.0, "battery_remaining": 100, "vel": 0.0, "mode": "MANUAL", "home_alt_abs": null, "link_key": "serial-1", "link_label": "COM6@115200", "link_kind": "serial"}}
{"timestamp": 1775538422.070855, "datetime": "2026-04-07T09:07:02", "payload": {"lat": 0.0, "lon": 0.0, "alt": -13.059999465942383, "alt_abs": -13.05, "home_lat": null, "home_lon": null, "heading": 105.0, "roll": -0.6823392598180059, "pitch": 1.3093151406580041, "yaw": 105.81184945192267, "gps": 0, "volt": 0.0, "battery_remaining": 100, "vel": 0.0, "mode": "MANUAL", "home_alt_abs": null, "link_key": "serial-1", "link_label": "COM6@115200", "link_kind": "serial"}}
{"timestamp": 1775538422.107647, "datetime": "2026-04-07T09:07:02", "payload": {"lat": 0.0, "lon": 0.0, "alt": -13.059999465942383, "alt_abs": -13.05, "home_lat": null, "home_lon": null, "heading": 105.0, "roll": -0.6823392598180059, "pitch": 1.3093151406580041, "yaw": 105.81184945192267, "gps": 0, "volt": 0.0, "battery_remaining": 100, "vel": 0.0, "mode": "MANUAL", "home_alt_abs": null, "link_key": "serial-1", "link_label": "COM6@115200", "link_kind": "serial"}}
{"timestamp": 1775538422.1413462, "datetime": "2026-04-07T09:07:02", "payload": {"lat": 0.0, "lon": 0.0, "alt": -13.059999465942383, "alt_abs": -13.05, "home_lat": null, "home_lon": null, "heading": 105.0, "roll": -0.6823392598180059, "pitch": 1.3093151406580041, "yaw": 105.81184945192267, "gps": 0, "volt": 0.0, "battery_remaining": 100, "vel": 0.0, "mode": "MANUAL", "home_alt_abs": null, "link_key": "serial-1", "link_label": "COM6@115200", "link_kind": "serial"}}
{"timestamp": 1775538422.1736698, "datetime": "2026-04-07T09:07:02", "payload": {"lat": 0.0, "lon": 0.0, "alt": -13.059999465942383, "alt_abs": -13.05, "home_lat": null, "home_lon": null, "heading": 105.80590035715558, "roll": -0.6817760360157443, "pitch": 1.3077714111838754, "yaw": 105.80590035715558, "gps": 0, "volt": 0.0, "battery_remaining": 100, "vel": 0.0, "mode": "MANUAL", "home_alt_abs": null, "link_key": "serial-1", "link_label": "COM6@115200", "link_kind": "serial"}}
{"timestamp": 1775538422.2053916, "datetime": "2026-04-07T09:07:02", "payload": {"lat": 0.0, "lon": 0.0, "alt": -12.899999618530273, "alt_abs": -13.05, "home_lat": null, "home_lon": null, "heading": 105.0, "roll": -0.6817760360157443, "pitch": 1.3077714111838754, "yaw": 105.80590035715558, "gps": 0, "volt": 0.0, "battery_remaining": 100, "vel": 0.0, "mode": "MANUAL", "home_alt_abs": null, "link_key": "serial-1", "link_label": "COM6@115200", "link_kind": "serial"}}
{"timestamp": 1775538422.236478, "datetime": "2026-04-07T09:07:02", "payload": {"lat": 0.0, "lon": 0.0, "alt": -12.899999618530273, "alt_abs": -13.05, "home_lat": null, "home_lon": null, "heading": 105.0, "roll": -0.6817760360157443, "pitch": 1.3077714111838754, "yaw": 105.80590035715558, "gps": 0, "volt": 0.0, "battery_remaining": 100, "vel": 0.0, "mode": "MANUAL", "home_alt_abs": null, "link_key": "serial-1", "link_label": "COM6@115200", "link_kind": "serial"}}
{"timestamp": 1775538422.2669728, "datetime": "2026-04-07T09:07:02", "payload": {"lat": 0.0, "lon": 0.0, "alt": -12.899999618530273, "alt_abs": -13.05, "home_lat": null, "home_lon": null, "heading": 105.81857718825513, "roll": -0.6849000471482318, "pitch": 1.308858585200671, "yaw": 105.81857718825513, "gps": 0, "volt": 0.0, "battery_remaining": 100, "vel": 0.0, "mode": "MANUAL", "home_alt_abs": null, "link_key": "serial-1", "link_label": "COM6@115200", "link_kind": "serial"}}
{"timestamp": 1775538422.2995899, "datetime": "2026-04-07T09:07:02", "payload": {"lat": 0.0, "lon": 0.0, "alt": -13.00999927520752, "alt_abs": -13.05, "home_lat": null, "home_lon": null, "heading": 105.0, "roll": -0.6849000471482318, "pitch": 1.308858585200671, "yaw": 105.81857718825513, "gps": 0, "volt": 0.0, "battery_remaining": 100, "vel": 0.0, "mode": "MANUAL", "home_alt_abs": null, "link_key": "serial-1", "link_label": "COM6@115200", "link_kind": "serial"}}
{"timestamp": 1775538422.3302634, "datetime": "2026-04-07T09:07:02", "payload": {"lat": 0.0, "lon": 0.0, "alt": -13.00999927520752, "alt_abs": -13.05, "home_lat": null, "home_lon": null, "heading": 105.0, "roll": -0.6849000471482318, "pitch": 1.308858585200671, "yaw": 105.81857718825513, "gps": 0, "volt": 0.0, "battery_remaining": 100, "vel": 0.0, "mode": "MANUAL", "home_alt_abs": null, "link_key": "serial-1", "link_label": "COM6@115200", "link_kind": "serial"}}
{"timestamp": 1775538422.361569, "datetime": "2026-04-07T09:07:02", "payload": {"lat": 0.0, "lon": 0.0, "alt": -13.00999927520752, "alt_abs": -13.05, "home_lat": null, "home_lon": null, "heading": 105.0, "roll": -0.6849000471482318, "pitch": 1.308858585200671, "yaw": 105.81857718825513, "gps": 0, "volt": 0.0, "battery_remaining": 100, "vel": 0.0, "mode": "MANUAL", "home_alt_abs": null, "link_key": "serial-1", "link_label": "COM6@115200", "link_kind": "serial"}}
{"timestamp": 1775538422.3932536, "datetime": "2026-04-07T09:07:02", "payload": {"lat": 0.0, "lon": 0.0, "alt": -13.149, "alt_abs": -13.14, "home_lat": null, "home_lon": null, "heading": 105.82, "roll": -0.6849000471482318, "pitch": 1.308858585200671, "yaw": 105.81857718825513, "gps": 0, "volt": 0.0, "battery_remaining": 100, "vel": 0.0, "mode": "MANUAL", "home_alt_abs": null, "link_key": "serial-1", "link_label": "COM6@115200", "link_kind": "serial"}}
{"timestamp": 1775538422.424125, "datetime": "2026-04-07T09:07:02", "payload": {"lat": 0.0, "lon": 0.0, "alt": -13.149, "alt_abs": -13.14, "home_lat": null, "home_lon": null, "heading": 105.82, "roll": -0.6849000471482318, "pitch": 1.308858585200671, "yaw": 105.81857718825513, "gps": 0, "volt": 0.0, "battery_remaining": 100, "vel": 0.0, "mode": "MANUAL", "home_alt_abs": null, "link_key": "serial-1", "link_label": "COM6@115200", "link_kind": "serial"}}
{"timestamp": 1775538422.4570832, "datetime": "2026-04-07T09:07:02", "payload": {"lat": 0.0, "lon": 0.0, "alt": -13.149, "alt_abs": -13.14, "home_lat": null, "home_lon": null, "heading": 105.82, "roll": -0.6849000471482318, "pitch": 1.308858585200671, "yaw": 105.81857718825513, "gps": 0, "volt": 0.0, "battery_remaining": 100, "vel": 0.0, "mode": "MANUAL", "home_alt_abs": null, "link_key": "serial-1", "link_label": "COM6@115200", "link_kind": "serial"}}
{"timestamp": 1775538422.4887621, "datetime": "2026-04-07T09:07:02", "payload": {"lat": 0.0, "lon": 0.0, "alt": -13.149, "alt_abs": -13.14, "home_lat": null, "home_lon": null, "heading": 105.82, "roll": -0.6849000471482318, "pitch": 1.308858585200671, "yaw": 105.81857718825513, "gps": 0, "volt": 0.0, "battery_remaining": 100, "vel": 0.0, "mode": "MANUAL", "home_alt_abs": null, "link_key": "serial-1", "link_label": "COM6@115200", "link_kind": "serial"}}
{"timestamp": 1775538422.5199127, "datetime": "2026-04-07T09:07:02", "payload": {"lat": 0.0, "lon": 0.0, "alt": -13.149, "alt_abs": -13.14, "home_lat": null, "home_lon": null, "heading": 105.82, "roll": -0.6849000471482318, "pitch": 1.308858585200671, "yaw": 105.81857718825513, "gps": 0, "volt": 0.0, "battery_remaining": 100, "vel": 0.0, "mode": "MANUAL", "home_alt_abs": null, "link_key": "serial-1", "link_label": "COM6@115200", "link_kind": "serial"}}
{"timestamp": 1775538422.5509357, "datetime": "2026-04-07T09:07:02", "payload": {"lat": 0.0, "lon": 0.0, "alt": -13.149, "alt_abs": -13.14, "home_lat": null, "home_lon": null, "heading": 105.82, "roll": -0.6849000471482318, "pitch": 1.308858585200671, "yaw": 105.81857718825513, "gps": 0, "volt": 0.0, "battery_remaining": 100, "vel": 0.0, "mode": "MANUAL", "home_alt_abs": null, "link_key": "serial-1", "link_label": "COM6@115200", "link_kind": "serial"}}
{"timestamp": 1775538422.5819707, "datetime": "2026-04-07T09:07:02", "payload": {"lat": 0.0, "lon": 0.0, "alt": -13.149, "alt_abs": -13.14, "home_lat": null, "home_lon": null, "heading": 105.82, "roll": -0.6849000471482318, "pitch": 1.308858585200671, "yaw": 105.81857718825513, "gps": 0, "volt": 0.0, "battery_remaining": 100, "vel": 0.0, "mode": "MANUAL", "home_alt_abs": null, "link_key": "serial-1", "link_label": "COM6@115200", "link_kind": "serial"}}
{"timestamp": 1775538422.615299, "datetime": "2026-04-07T09:07:02", "payload": {"lat": 0.0, "lon": 0.0, "alt": -13.149, "alt_abs": -13.14, "home_lat": null, "home_lon": null, "heading": 105.81943779209055, "roll": -0.6853828027843342, "pitch": 1.3090038334422396, "yaw": 105.81943779209055, "gps": 0, "volt": 0.0, "battery_remaining": 100, "vel": 0.0, "mode": "MANUAL", "home_alt_abs": null, "link_key": "serial-1", "link_label": "COM6@115200", "link_kind": "serial"}}
{"timestamp": 1775538422.6463013, "datetime": "2026-04-07T09:07:02", "payload": {"lat": 0.0, "lon": 0.0, "alt": -13.139999389648438, "alt_abs": -13.14, "home_lat": null, "home_lon": null, "heading": 105.0, "roll": -0.6853828027843342, "pitch": 1.3090038334422396, "yaw": 105.81943779209055, "gps": 0, "volt": 0.0, "battery_remaining": 100, "vel": 0.0, "mode": "MANUAL", "home_alt_abs": null, "link_key": "serial-1", "link_label": "COM6@115200", "link_kind": "serial"}}
{"timestamp": 1775538422.6776166, "datetime": "2026-04-07T09:07:02", "payload": {"lat": 0.0, "lon": 0.0, "alt": -13.139999389648438, "alt_abs": -13.14, "home_lat": null, "home_lon": null, "heading": 105.0, "roll": -0.6853828027843342, "pitch": 1.3090038334422396, "yaw": 105.81943779209055, "gps": 0, "volt": 0.0, "battery_remaining": 100, "vel": 0.0, "mode": "MANUAL", "home_alt_abs": null, "link_key": "serial-1", "link_label": "COM6@115200", "link_kind": "serial"}}
{"timestamp": 1775538422.7098327, "datetime": "2026-04-07T09:07:02", "payload": {"lat": 0.0, "lon": 0.0, "alt": -13.139999389648438, "alt_abs": -13.14, "home_lat": null, "home_lon": null, "heading": 105.80700684780112, "roll": -0.6888078224879782, "pitch": 1.3085521871833725, "yaw": 105.80700684780112, "gps": 0, "volt": 0.0, "battery_remaining": 100, "vel": 0.0, "mode": "MANUAL", "home_alt_abs": null, "link_key": "serial-1", "link_label": "COM6@115200", "link_kind": "serial"}}
{"timestamp": 1775538422.7412736, "datetime": "2026-04-07T09:07:02", "payload": {"lat": 0.0, "lon": 0.0, "alt": -13.0, "alt_abs": -13.14, "home_lat": null, "home_lon": null, "heading": 105.0, "roll": -0.6888078224879782, "pitch": 1.3085521871833725, "yaw": 105.80700684780112, "gps": 0, "volt": 0.0, "battery_remaining": 100, "vel": 0.0, "mode": "MANUAL", "home_alt_abs": null, "link_key": "serial-1", "link_label": "COM6@115200", "link_kind": "serial"}}
{"timestamp": 1775538422.7745118, "datetime": "2026-04-07T09:07:02", "payload": {"lat": 0.0, "lon": 0.0, "alt": -13.0, "alt_abs": -13.14, "home_lat": null, "home_lon": null, "heading": 105.0, "roll": -0.6888078224879782, "pitch": 1.3085521871833725, "yaw": 105.80700684780112, "gps": 0, "volt": 0.0, "battery_remaining": 100, "vel": 0.0, "mode": "MANUAL", "home_alt_abs": null, "link_key": "serial-1", "link_label": "COM6@115200", "link_kind": "serial"}}
{"timestamp": 1775538422.8080657, "datetime": "2026-04-07T09:07:02", "payload": {"lat": 0.0, "lon": 0.0, "alt": -13.0, "alt_abs": -13.14, "home_lat": null, "home_lon": null, "heading": 105.79954828122747, "roll": -0.6887973637608117, "pitch": 1.3079687396178654, "yaw": 105.79954828122747, "gps": 0, "volt": 0.0, "battery_remaining": 100, "vel": 0.0, "mode": "MANUAL", "home_alt_abs": null, "link_key": "serial-1", "link_label": "COM6@115200", "link_kind": "serial"}}
{"timestamp": 1775538422.8389678, "datetime": "2026-04-07T09:07:02", "payload": {"lat": 0.0, "lon": 0.0, "alt": -12.880000114440918, "alt_abs": -13.14, "home_lat": null, "home_lon": null, "heading": 105.0, "roll": -0.6887973637608117, "pitch": 1.3079687396178654, "yaw": 105.79954828122747, "gps": 0, "volt": 0.0, "battery_remaining": 100, "vel": 0.0, "mode": "MANUAL", "home_alt_abs": null, "link_key": "serial-1", "link_label": "COM6@115200", "link_kind": "serial"}}
{"timestamp": 1775538422.8708022, "datetime": "2026-04-07T09:07:02", "payload": {"lat": 0.0, "lon": 0.0, "alt": -12.880000114440918, "alt_abs": -13.14, "home_lat": null, "home_lon": null, "heading": 105.0, "roll": -0.6887973637608117, "pitch": 1.3079687396178654, "yaw": 105.79954828122747, "gps": 0, "volt": 0.0, "battery_remaining": 100, "vel": 0.0, "mode": "MANUAL", "home_alt_abs": null, "link_key": "serial-1", "link_label": "COM6@115200", "link_kind": "serial"}}
{"timestamp": 1775538422.902676, "datetime": "2026-04-07T09:07:02", "payload": {"lat": 0.0, "lon": 0.0, "alt": -12.880000114440918, "alt_abs": -13.14, "home_lat": null, "home_lon": null, "heading": 105.0, "roll": -0.6887973637608117, "pitch": 1.3079687396178654, "yaw": 105.79954828122747, "gps": 0, "volt": 0.0, "battery_remaining": 100, "vel": 0.0, "mode": "MANUAL", "home_alt_abs": null, "link_key": "serial-1", "link_label": "COM6@115200", "link_kind": "serial"}}
{"timestamp": 1775538422.933991, "datetime": "2026-04-07T09:07:02", "payload": {"lat": 0.0, "lon": 0.0, "alt": -12.880000114440918, "alt_abs": -13.14, "home_lat": null, "home_lon": null, "heading": 105.0, "roll": -0.6887973637608117, "pitch": 1.3079687396178654, "yaw": 105.79954828122747, "gps": 0, "volt": 0.0, "battery_remaining": 100, "vel": 0.0, "mode": "MANUAL", "home_alt_abs": null, "link_key": "serial-1", "link_label": "COM6@115200", "link_kind": "serial"}}
{"timestamp": 1775538422.96581, "datetime": "2026-04-07T09:07:02", "payload": {"lat": 0.0, "lon": 0.0, "alt": -12.880000114440918, "alt_abs": -13.14, "home_lat": null, "home_lon": null, "heading": 105.0, "roll": -0.6887973637608117, "pitch": 1.3079687396178654, "yaw": 105.79954828122747, "gps": 0, "volt": 0.0, "battery_remaining": 100, "vel": 0.0, "mode": "MANUAL", "home_alt_abs": null, "link_key": "serial-1", "link_label": "COM6@115200", "link_kind": "serial"}}
{"timestamp": 1775538422.9961574, "datetime": "2026-04-07T09:07:02", "payload": {"lat": 0.0, "lon": 0.0, "alt": -12.880000114440918, "alt_abs": -13.14, "home_lat": null, "home_lon": null, "heading": 105.0, "roll": -0.6887973637608117, "pitch": 1.3079687396178654, "yaw": 105.79954828122747, "gps": 0, "volt": 0.0, "battery_remaining": 100, "vel": 0.0, "mode": "MANUAL", "home_alt_abs": null, "link_key": "serial-1", "link_label": "COM6@115200", "link_kind": "serial"}}
{"timestamp": 1775538423.027335, "datetime": "2026-04-07T09:07:03", "payload": {"lat": 0.0, "lon": 0.0, "alt": -12.880000114440918, "alt_abs": -13.14, "home_lat": null, "home_lon": null, "heading": 105.0, "roll": -0.6887973637608117, "pitch": 1.3079687396178654, "yaw": 105.79954828122747, "gps": 0, "volt": 0.0, "battery_remaining": 100, "vel": 0.0, "mode": "MANUAL", "home_alt_abs": null, "link_key": "serial-1", "link_label": "COM6@115200", "link_kind": "serial"}}
{"timestamp": 1775538423.0590415, "datetime": "2026-04-07T09:07:03", "payload": {"lat": 0.0, "lon": 0.0, "alt": -12.880000114440918, "alt_abs": -13.14, "home_lat": null, "home_lon": null, "heading": 105.0, "roll": -0.6887973637608117, "pitch": 1.3079687396178654, "yaw": 105.79954828122747, "gps": 0, "volt": 0.0, "battery_remaining": 100, "vel": 0.0, "mode": "MANUAL", "home_alt_abs": null, "link_key": "serial-1", "link_label": "COM6@115200", "link_kind": "serial"}}
{"timestamp": 1775538423.0924447, "datetime": "2026-04-07T09:07:03", "payload": {"lat": 0.0, "lon": 0.0, "alt": -12.880000114440918, "alt_abs": -13.14, "home_lat": null, "home_lon": null, "heading": 105.0, "roll": -0.6887973637608117, "pitch": 1.3079687396178654, "yaw": 105.79954828122747, "gps": 0, "volt": 0.0, "battery_remaining": 100, "vel": 0.0, "mode": "MANUAL", "home_alt_abs": null, "link_key": "serial-1", "link_label": "COM6@115200", "link_kind": "serial"}}
{"timestamp": 1775538423.1245067, "datetime": "2026-04-07T09:07:03", "payload": {"lat": 0.0, "lon": 0.0, "alt": -12.880000114440918, "alt_abs": -13.14, "home_lat": null, "home_lon": null, "heading": 105.0, "roll": -0.6887973637608117, "pitch": 1.3079687396178654, "yaw": 105.79954828122747, "gps": 0, "volt": 0.0, "battery_remaining": 100, "vel": 0.0, "mode": "MANUAL", "home_alt_abs": null, "link_key": "serial-1", "link_label": "COM6@115200", "link_kind": "serial"}}
{"timestamp": 1775538423.1553535, "datetime": "2026-04-07T09:07:03", "payload": {"lat": 0.0, "lon": 0.0, "alt": -12.880000114440918, "alt_abs": -13.14, "home_lat": null, "home_lon": null, "heading": 105.78456284618846, "roll": -0.6903624909369495, "pitch": 1.3085044825808883, "yaw": 105.78456284618846, "gps": 0, "volt": 0.0, "battery_remaining": 100, "vel": 0.0, "mode": "MANUAL", "home_alt_abs": null, "link_key": "serial-1", "link_label": "COM6@115200", "link_kind": "serial"}}
{"timestamp": 1775538423.1872702, "datetime": "2026-04-07T09:07:03", "payload": {"lat": 0.0, "lon": 0.0, "alt": -12.889999389648438, "alt_abs": -13.14, "home_lat": null, "home_lon": null, "heading": 105.0, "roll": -0.6903624909369495, "pitch": 1.3085044825808883, "yaw": 105.78456284618846, "gps": 0, "volt": 0.0, "battery_remaining": 100, "vel": 0.0, "mode": "MANUAL", "home_alt_abs": null, "link_key": "serial-1", "link_label": "COM6@115200", "link_kind": "serial"}}
{"timestamp": 1775538423.2208266, "datetime": "2026-04-07T09:07:03", "payload": {"lat": 0.0, "lon": 0.0, "alt": -12.889999389648438, "alt_abs": -13.14, "home_lat": null, "home_lon": null, "heading": 105.0, "roll": -0.6903624909369495, "pitch": 1.3085044825808883, "yaw": 105.78456284618846, "gps": 0, "volt": 0.0, "battery_remaining": 100, "vel": 0.0, "mode": "MANUAL", "home_alt_abs": null, "link_key": "serial-1", "link_label": "COM6@115200", "link_kind": "serial"}}
{"timestamp": 1775538423.2517657, "datetime": "2026-04-07T09:07:03", "payload": {"lat": 0.0, "lon": 0.0, "alt": -12.889999389648438, "alt_abs": -13.14, "home_lat": null, "home_lon": null, "heading": 105.78745884639655, "roll": -0.6882666367179605, "pitch": 1.3055599239966722, "yaw": 105.78745884639655, "gps": 0, "volt": 0.0, "battery_remaining": 100, "vel": 0.0, "mode": "MANUAL", "home_alt_abs": null, "link_key": "serial-1", "link_label": "COM6@115200", "link_kind": "serial"}}
{"timestamp": 1775538423.2830837, "datetime": "2026-04-07T09:07:03", "payload": {"lat": 0.0, "lon": 0.0, "alt": -12.889999389648438, "alt_abs": -13.14, "home_lat": null, "home_lon": null, "heading": 105.0, "roll": -0.6882666367179605, "pitch": 1.3055599239966722, "yaw": 105.78745884639655, "gps": 0, "volt": 0.0, "battery_remaining": 100, "vel": 0.0, "mode": "MANUAL", "home_alt_abs": null, "link_key": "serial-1", "link_label": "COM6@115200", "link_kind": "serial"}}
{"timestamp": 1775538423.3139436, "datetime": "2026-04-07T09:07:03", "payload": {"lat": 0.0, "lon": 0.0, "alt": -12.889999389648438, "alt_abs": -13.14, "home_lat": null, "home_lon": null, "heading": 105.0, "roll": -0.6882666367179605, "pitch": 1.3055599239966722, "yaw": 105.78745884639655, "gps": 0, "volt": 0.0, "battery_remaining": 100, "vel": 0.0, "mode": "MANUAL", "home_alt_abs": null, "link_key": "serial-1", "link_label": "COM6@115200", "link_kind": "serial"}}
{"timestamp": 1775538423.3447926, "datetime": "2026-04-07T09:07:03", "payload": {"lat": 0.0, "lon": 0.0, "alt": -12.889999389648438, "alt_abs": -13.14, "home_lat": null, "home_lon": null, "heading": 105.80596865904728, "roll": -0.689175158599278, "pitch": 1.3061061256868618, "yaw": 105.80596865904728, "gps": 0, "volt": 0.0, "battery_remaining": 100, "vel": 0.0, "mode": "MANUAL", "home_alt_abs": null, "link_key": "serial-1", "link_label": "COM6@115200", "link_kind": "serial"}}
{"timestamp": 1775538423.3768709, "datetime": "2026-04-07T09:07:03", "payload": {"lat": 0.0, "lon": 0.0, "alt": -12.869999885559082, "alt_abs": -13.14, "home_lat": null, "home_lon": null, "heading": 105.0, "roll": -0.689175158599278, "pitch": 1.3061061256868618, "yaw": 105.80596865904728, "gps": 0, "volt": 0.0, "battery_remaining": 100, "vel": 0.0, "mode": "MANUAL", "home_alt_abs": null, "link_key": "serial-1", "link_label": "COM6@115200", "link_kind": "serial"}}
{"timestamp": 1775538423.4081357, "datetime": "2026-04-07T09:07:03", "payload": {"lat": 0.0, "lon": 0.0, "alt": -12.869999885559082, "alt_abs": -13.14, "home_lat": null, "home_lon": null, "heading": 105.0, "roll": -0.689175158599278, "pitch": 1.3061061256868618, "yaw": 105.80596865904728, "gps": 0, "volt": 0.0, "battery_remaining": 100, "vel": 0.0, "mode": "MANUAL", "home_alt_abs": null, "link_key": "serial-1", "link_label": "COM6@115200", "link_kind": "serial"}}
{"timestamp": 1775538423.4404263, "datetime": "2026-04-07T09:07:03", "payload": {"lat": 0.0, "lon": 0.0, "alt": -12.869999885559082, "alt_abs": -13.14, "home_lat": null, "home_lon": null, "heading": 105.81805126368904, "roll": -0.6890351930821457, "pitch": 1.305572303714543, "yaw": 105.81805126368904, "gps": 0, "volt": 0.0, "battery_remaining": 100, "vel": 0.0, "mode": "MANUAL", "home_alt_abs": null, "link_key": "serial-1", "link_label": "COM6@115200", "link_kind": "serial"}}
{"timestamp": 1775538423.4722888, "datetime": "2026-04-07T09:07:03", "payload": {"lat": 0.0, "lon": 0.0, "alt": -12.979999542236328, "alt_abs": -13.14, "home_lat": null, "home_lon": null, "heading": 105.0, "roll": -0.6890351930821457, "pitch": 1.305572303714543, "yaw": 105.81805126368904, "gps": 0, "volt": 0.0, "battery_remaining": 100, "vel": 0.0, "mode": "MANUAL", "home_alt_abs": null, "link_key": "serial-1", "link_label": "COM6@115200", "link_kind": "serial"}}
{"timestamp": 1775538423.5037458, "datetime": "2026-04-07T09:07:03", "payload": {"lat": 0.0, "lon": 0.0, "alt": -12.979999542236328, "alt_abs": -13.14, "home_lat": null, "home_lon": null, "heading": 105.0, "roll": -0.6890351930821457, "pitch": 1.305572303714543, "yaw": 105.81805126368904, "gps": 0, "volt": 0.0, "battery_remaining": 100, "vel": 0.0, "mode": "MANUAL", "home_alt_abs": null, "link_key": "serial-1", "link_label": "COM6@115200", "link_kind": "serial"}}
{"timestamp": 1775538423.5356243, "datetime": "2026-04-07T09:07:03", "payload": {"lat": 0.0, "lon": 0.0, "alt": -12.979999542236328, "alt_abs": -13.14, "home_lat": null, "home_lon": null, "heading": 105.0, "roll": -0.6890351930821457, "pitch": 1.305572303714543, "yaw": 105.81805126368904, "gps": 0, "volt": 0.0, "battery_remaining": 100, "vel": 0.0, "mode": "MANUAL", "home_alt_abs": null, "link_key": "serial-1", "link_label": "COM6@115200", "link_kind": "serial"}}
{"timestamp": 1775538423.566961, "datetime": "2026-04-07T09:07:03", "payload": {"lat": 0.0, "lon": 0.0, "alt": -12.981, "alt_abs": -12.98, "home_lat": null, "home_lon": null, "heading": 105.81, "roll": -0.6890351930821457, "pitch": 1.305572303714543, "yaw": 105.81805126368904, "gps": 0, "volt": 0.0, "battery_remaining": 100, "vel": 0.0, "mode": "MANUAL", "home_alt_abs": null, "link_key": "serial-1", "link_label": "COM6@115200", "link_kind": "serial"}}
{"timestamp": 1775538423.5992415, "datetime": "2026-04-07T09:07:03", "payload": {"lat": 0.0, "lon": 0.0, "alt": -12.981, "alt_abs": -12.98, "home_lat": null, "home_lon": null, "heading": 105.81, "roll": -0.6890351930821457, "pitch": 1.305572303714543, "yaw": 105.81805126368904, "gps": 0, "volt": 0.0, "battery_remaining": 100, "vel": 0.0, "mode": "MANUAL", "home_alt_abs": null, "link_key": "serial-1", "link_label": "COM6@115200", "link_kind": "serial"}}
{"timestamp": 1775538423.6301303, "datetime": "2026-04-07T09:07:03", "payload": {"lat": 0.0, "lon": 0.0, "alt": -12.981, "alt_abs": -12.98, "home_lat": null, "home_lon": null, "heading": 105.81, "roll": -0.6890351930821457, "pitch": 1.305572303714543, "yaw": 105.81805126368904, "gps": 0, "volt": 0.0, "battery_remaining": 100, "vel": 0.0, "mode": "MANUAL", "home_alt_abs": null, "link_key": "serial-1", "link_label": "COM6@115200", "link_kind": "serial"}}
{"timestamp": 1775538423.6613154, "datetime": "2026-04-07T09:07:03", "payload": {"lat": 0.0, "lon": 0.0, "alt": -12.981, "alt_abs": -12.98, "home_lat": null, "home_lon": null, "heading": 105.81, "roll": -0.6890351930821457, "pitch": 1.305572303714543, "yaw": 105.81805126368904, "gps": 0, "volt": 0.0, "battery_remaining": 100, "vel": 0.0, "mode": "MANUAL", "home_alt_abs": null, "link_key": "serial-1", "link_label": "COM6@115200", "link_kind": "serial"}}
{"timestamp": 1775538423.6949239, "datetime": "2026-04-07T09:07:03", "payload": {"lat": 0.0, "lon": 0.0, "alt": -12.981, "alt_abs": -12.98, "home_lat": null, "home_lon": null, "heading": 105.81, "roll": -0.6890351930821457, "pitch": 1.305572303714543, "yaw": 105.81805126368904, "gps": 0, "volt": 0.0, "battery_remaining": 100, "vel": 0.0, "mode": "MANUAL", "home_alt_abs": null, "link_key": "serial-1", "link_label": "COM6@115200", "link_kind": "serial"}}
{"timestamp": 1775538423.7266452, "datetime": "2026-04-07T09:07:03", "payload": {"lat": 0.0, "lon": 0.0, "alt": -12.981, "alt_abs": -12.98, "home_lat": null, "home_lon": null, "heading": 105.81, "roll": -0.6890351930821457, "pitch": 1.305572303714543, "yaw": 105.81805126368904, "gps": 0, "volt": 0.0, "battery_remaining": 100, "vel": 0.0, "mode": "MANUAL", "home_alt_abs": null, "link_key": "serial-1", "link_label": "COM6@115200", "link_kind": "serial"}}
{"timestamp": 1775538423.7585301, "datetime": "2026-04-07T09:07:03", "payload": {"lat": 0.0, "lon": 0.0, "alt": -12.981, "alt_abs": -12.98, "home_lat": null, "home_lon": null, "heading": 105.81, "roll": -0.6890351930821457, "pitch": 1.305572303714543, "yaw": 105.81805126368904, "gps": 0, "volt": 0.0, "battery_remaining": 100, "vel": 0.0, "mode": "MANUAL", "home_alt_abs": null, "link_key": "serial-1", "link_label": "COM6@115200", "link_kind": "serial"}}
{"timestamp": 1775538423.790319, "datetime": "2026-04-07T09:07:03", "payload": {"lat": 0.0, "lon": 0.0, "alt": -12.981, "alt_abs": -12.98, "home_lat": null, "home_lon": null, "heading": 105.81834496182334, "roll": -0.6901364543641044, "pitch": 1.3055670743509598, "yaw": 105.81834496182334, "gps": 0, "volt": 0.0, "battery_remaining": 100, "vel": 0.0, "mode": "MANUAL", "home_alt_abs": null, "link_key": "serial-1", "link_label": "COM6@115200", "link_kind": "serial"}}
{"timestamp": 1775538423.824697, "datetime": "2026-04-07T09:07:03", "payload": {"lat": 0.0, "lon": 0.0, "alt": -12.9399995803833, "alt_abs": -12.98, "home_lat": null, "home_lon": null, "heading": 105.0, "roll": -0.6901364543641044, "pitch": 1.3055670743509598, "yaw": 105.81834496182334, "gps": 0, "volt": 0.0, "battery_remaining": 100, "vel": 0.0, "mode": "MANUAL", "home_alt_abs": null, "link_key": "serial-1", "link_label": "COM6@115200", "link_kind": "serial"}}
{"timestamp": 1775538423.8624437, "datetime": "2026-04-07T09:07:03", "payload": {"lat": 0.0, "lon": 0.0, "alt": -12.9399995803833, "alt_abs": -12.98, "home_lat": null, "home_lon": null, "heading": 105.0, "roll": -0.6901364543641044, "pitch": 1.3055670743509598, "yaw": 105.81834496182334, "gps": 0, "volt": 0.0, "battery_remaining": 100, "vel": 0.0, "mode": "MANUAL", "home_alt_abs": null, "link_key": "serial-1", "link_label": "COM6@115200", "link_kind": "serial"}}
{"timestamp": 1775538423.8951938, "datetime": "2026-04-07T09:07:03", "payload": {"lat": 0.0, "lon": 0.0, "alt": -12.9399995803833, "alt_abs": -12.98, "home_lat": null, "home_lon": null, "heading": 105.82105654692384, "roll": -0.6893880150414591, "pitch": 1.3076393964338238, "yaw": 105.82105654692384, "gps": 0, "volt": 0.0, "battery_remaining": 100, "vel": 0.0, "mode": "MANUAL", "home_alt_abs": null, "link_key": "serial-1", "link_label": "COM6@115200", "link_kind": "serial"}}
{"timestamp": 1775538423.9270277, "datetime": "2026-04-07T09:07:03", "payload": {"lat": 0.0, "lon": 0.0, "alt": -13.0, "alt_abs": -12.98, "home_lat": null, "home_lon": null, "heading": 105.0, "roll": -0.6893880150414591, "pitch": 1.3076393964338238, "yaw": 105.82105654692384, "gps": 0, "volt": 0.0, "battery_remaining": 100, "vel": 0.0, "mode": "MANUAL", "home_alt_abs": null, "link_key": "serial-1", "link_label": "COM6@115200", "link_kind": "serial"}}
{"timestamp": 1775538423.95789, "datetime": "2026-04-07T09:07:03", "payload": {"lat": 0.0, "lon": 0.0, "alt": -13.0, "alt_abs": -12.98, "home_lat": null, "home_lon": null, "heading": 105.0, "roll": -0.6893880150414591, "pitch": 1.3076393964338238, "yaw": 105.82105654692384, "gps": 0, "volt": 0.0, "battery_remaining": 100, "vel": 0.0, "mode": "MANUAL", "home_alt_abs": null, "link_key": "serial-1", "link_label": "COM6@115200", "link_kind": "serial"}}
{"timestamp": 1775538423.9892857, "datetime": "2026-04-07T09:07:03", "payload": {"lat": 0.0, "lon": 0.0, "alt": -13.0, "alt_abs": -12.98, "home_lat": null, "home_lon": null, "heading": 105.8301065475741, "roll": -0.6917023819530356, "pitch": 1.3095182320641063, "yaw": 105.8301065475741, "gps": 0, "volt": 0.0, "battery_remaining": 100, "vel": 0.0, "mode": "MANUAL", "home_alt_abs": null, "link_key": "serial-1", "link_label": "COM6@115200", "link_kind": "serial"}}
{"timestamp": 1775538424.020479, "datetime": "2026-04-07T09:07:04", "payload": {"lat": 0.0, "lon": 0.0, "alt": -12.969999313354492, "alt_abs": -12.98, "home_lat": null, "home_lon": null, "heading": 105.0, "roll": -0.6917023819530356, "pitch": 1.3095182320641063, "yaw": 105.8301065475741, "gps": 0, "volt": 0.0, "battery_remaining": 100, "vel": 0.0, "mode": "MANUAL", "home_alt_abs": null, "link_key": "serial-1", "link_label": "COM6@115200", "link_kind": "serial"}}
{"timestamp": 1775538424.0515869, "datetime": "2026-04-07T09:07:04", "payload": {"lat": 0.0, "lon": 0.0, "alt": -12.969999313354492, "alt_abs": -12.98, "home_lat": null, "home_lon": null, "heading": 105.0, "roll": -0.6917023819530356, "pitch": 1.3095182320641063, "yaw": 105.8301065475741, "gps": 0, "volt": 0.0, "battery_remaining": 100, "vel": 0.0, "mode": "MANUAL", "home_alt_abs": null, "link_key": "serial-1", "link_label": "COM6@115200", "link_kind": "serial"}}
{"timestamp": 1775538424.0853424, "datetime": "2026-04-07T09:07:04", "payload": {"lat": 0.0, "lon": 0.0, "alt": -12.969999313354492, "alt_abs": -12.98, "home_lat": null, "home_lon": null, "heading": 105.0, "roll": -0.6917023819530356, "pitch": 1.3095182320641063, "yaw": 105.8301065475741, "gps": 0, "volt": 0.0, "battery_remaining": 100, "vel": 0.0, "mode": "MANUAL", "home_alt_abs": null, "link_key": "serial-1", "link_label": "COM6@115200", "link_kind": "serial"}}
{"timestamp": 1775538424.1179047, "datetime": "2026-04-07T09:07:04", "payload": {"lat": 0.0, "lon": 0.0, "alt": -13.052, "alt_abs": -13.05, "home_lat": null, "home_lon": null, "heading": 105.83, "roll": -0.6917023819530356, "pitch": 1.3095182320641063, "yaw": 105.8301065475741, "gps": 0, "volt": 0.0, "battery_remaining": 100, "vel": 0.0, "mode": "MANUAL", "home_alt_abs": null, "link_key": "serial-1", "link_label": "COM6@115200", "link_kind": "serial"}}
{"timestamp": 1775538424.151505, "datetime": "2026-04-07T09:07:04", "payload": {"lat": 0.0, "lon": 0.0, "alt": -13.052, "alt_abs": -13.05, "home_lat": null, "home_lon": null, "heading": 105.83, "roll": -0.6917023819530356, "pitch": 1.3095182320641063, "yaw": 105.8301065475741, "gps": 0, "volt": 0.0, "battery_remaining": 100, "vel": 0.0, "mode": "MANUAL", "home_alt_abs": null, "link_key": "serial-1", "link_label": "COM6@115200", "link_kind": "serial"}}
{"timestamp": 1775538424.1830018, "datetime": "2026-04-07T09:07:04", "payload": {"lat": 0.0, "lon": 0.0, "alt": -13.052, "alt_abs": -13.05, "home_lat": null, "home_lon": null, "heading": 105.83, "roll": -0.6917023819530356, "pitch": 1.3095182320641063, "yaw": 105.8301065475741, "gps": 0, "volt": 0.0, "battery_remaining": 100, "vel": 0.0, "mode": "MANUAL", "home_alt_abs": null, "link_key": "serial-1", "link_label": "COM6@115200", "link_kind": "serial"}}
{"timestamp": 1775538424.2154365, "datetime": "2026-04-07T09:07:04", "payload": {"lat": 0.0, "lon": 0.0, "alt": -13.052, "alt_abs": -13.05, "home_lat": null, "home_lon": null, "heading": 105.83, "roll": -0.6917023819530356, "pitch": 1.3095182320641063, "yaw": 105.8301065475741, "gps": 0, "volt": 0.0, "battery_remaining": 100, "vel": 0.0, "mode": "MANUAL", "home_alt_abs": null, "link_key": "serial-1", "link_label": "COM6@115200", "link_kind": "serial"}}
{"timestamp": 1775538424.2470298, "datetime": "2026-04-07T09:07:04", "payload": {"lat": 0.0, "lon": 0.0, "alt": -13.052, "alt_abs": -13.05, "home_lat": null, "home_lon": null, "heading": 105.83, "roll": -0.6917023819530356, "pitch": 1.3095182320641063, "yaw": 105.8301065475741, "gps": 0, "volt": 0.0, "battery_remaining": 100, "vel": 0.0, "mode": "MANUAL", "home_alt_abs": null, "link_key": "serial-1", "link_label": "COM6@115200", "link_kind": "serial"}}
{"timestamp": 1775538424.2786055, "datetime": "2026-04-07T09:07:04", "payload": {"lat": 0.0, "lon": 0.0, "alt": -13.052, "alt_abs": -13.05, "home_lat": null, "home_lon": null, "heading": 105.83, "roll": -0.6917023819530356, "pitch": 1.3095182320641063, "yaw": 105.8301065475741, "gps": 0, "volt": 0.0, "battery_remaining": 100, "vel": 0.0, "mode": "MANUAL", "home_alt_abs": null, "link_key": "serial-1", "link_label": "COM6@115200", "link_kind": "serial"}}
{"timestamp": 1775538424.3098977, "datetime": "2026-04-07T09:07:04", "payload": {"lat": 0.0, "lon": 0.0, "alt": -13.052, "alt_abs": -13.05, "home_lat": null, "home_lon": null, "heading": 105.83, "roll": -0.6917023819530356, "pitch": 1.3095182320641063, "yaw": 105.8301065475741, "gps": 0, "volt": 0.0, "battery_remaining": 100, "vel": 0.0, "mode": "MANUAL", "home_alt_abs": null, "link_key": "serial-1", "link_label": "COM6@115200", "link_kind": "serial"}}
{"timestamp": 1775538424.340754, "datetime": "2026-04-07T09:07:04", "payload": {"lat": 0.0, "lon": 0.0, "alt": -13.052, "alt_abs": -13.05, "home_lat": null, "home_lon": null, "heading": 105.83272251002623, "roll": -0.6920925031485197, "pitch": 1.3082344766652612, "yaw": 105.83272251002623, "gps": 0, "volt": 0.0, "battery_remaining": 100, "vel": 0.0, "mode": "MANUAL", "home_alt_abs": null, "link_key": "serial-1", "link_label": "COM6@115200", "link_kind": "serial"}}
{"timestamp": 1775538424.372158, "datetime": "2026-04-07T09:07:04", "payload": {"lat": 0.0, "lon": 0.0, "alt": -13.049999237060547, "alt_abs": -13.05, "home_lat": null, "home_lon": null, "heading": 105.0, "roll": -0.6920925031485197, "pitch": 1.3082344766652612, "yaw": 105.83272251002623, "gps": 0, "volt": 0.0, "battery_remaining": 100, "vel": 0.0, "mode": "MANUAL", "home_alt_abs": null, "link_key": "serial-1", "link_label": "COM6@115200", "link_kind": "serial"}}
{"timestamp": 1775538424.4035106, "datetime": "2026-04-07T09:07:04", "payload": {"lat": 0.0, "lon": 0.0, "alt": -13.049999237060547, "alt_abs": -13.05, "home_lat": null, "home_lon": null, "heading": 105.0, "roll": -0.6920925031485197, "pitch": 1.3082344766652612, "yaw": 105.83272251002623, "gps": 0, "volt": 0.0, "battery_remaining": 100, "vel": 0.0, "mode": "MANUAL", "home_alt_abs": null, "link_key": "serial-1", "link_label": "COM6@115200", "link_kind": "serial"}}
{"timestamp": 1775538424.4354076, "datetime": "2026-04-07T09:07:04", "payload": {"lat": 0.0, "lon": 0.0, "alt": -13.049999237060547, "alt_abs": -13.05, "home_lat": null, "home_lon": null, "heading": 105.829539641873, "roll": -0.6936306297330949, "pitch": 1.3091718134071397, "yaw": 105.829539641873, "gps": 0, "volt": 0.0, "battery_remaining": 100, "vel": 0.0, "mode": "MANUAL", "home_alt_abs": null, "link_key": "serial-1", "link_label": "COM6@115200", "link_kind": "serial"}}
{"timestamp": 1775538424.4661293, "datetime": "2026-04-07T09:07:04", "payload": {"lat": 0.0, "lon": 0.0, "alt": -12.859999656677246, "alt_abs": -13.05, "home_lat": null, "home_lon": null, "heading": 105.0, "roll": -0.6936306297330949, "pitch": 1.3091718134071397, "yaw": 105.829539641873, "gps": 0, "volt": 0.0, "battery_remaining": 100, "vel": 0.0, "mode": "MANUAL", "home_alt_abs": null, "link_key": "serial-1", "link_label": "COM6@115200", "link_kind": "serial"}}
{"timestamp": 1775538424.5037045, "datetime": "2026-04-07T09:07:04", "payload": {"lat": 0.0, "lon": 0.0, "alt": -12.859999656677246, "alt_abs": -13.05, "home_lat": null, "home_lon": null, "heading": 105.0, "roll": -0.6936306297330949, "pitch": 1.3091718134071397, "yaw": 105.829539641873, "gps": 0, "volt": 0.0, "battery_remaining": 100, "vel": 0.0, "mode": "MANUAL", "home_alt_abs": null, "link_key": "serial-1", "link_label": "COM6@115200", "link_kind": "serial"}}
{"timestamp": 1775538424.5421982, "datetime": "2026-04-07T09:07:04", "payload": {"lat": 0.0, "lon": 0.0, "alt": -12.859999656677246, "alt_abs": -13.05, "home_lat": null, "home_lon": null, "heading": 105.84228477486424, "roll": -0.6944179691174974, "pitch": 1.308114948354786, "yaw": 105.84228477486424, "gps": 0, "volt": 0.0, "battery_remaining": 100, "vel": 0.0, "mode": "MANUAL", "home_alt_abs": null, "link_key": "serial-1", "link_label": "COM6@115200", "link_kind": "serial"}}
{"timestamp": 1775538424.5723212, "datetime": "2026-04-07T09:07:04", "payload": {"lat": 0.0, "lon": 0.0, "alt": -13.09999942779541, "alt_abs": -13.05, "home_lat": null, "home_lon": null, "heading": 105.0, "roll": -0.6944179691174974, "pitch": 1.308114948354786, "yaw": 105.84228477486424, "gps": 0, "volt": 0.0, "battery_remaining": 100, "vel": 0.0, "mode": "MANUAL", "home_alt_abs": null, "link_key": "serial-1", "link_label": "COM6@115200", "link_kind": "serial"}}
{"timestamp": 1775538424.605406, "datetime": "2026-04-07T09:07:04", "payload": {"lat": 0.0, "lon": 0.0, "alt": -13.09999942779541, "alt_abs": -13.05, "home_lat": null, "home_lon": null, "heading": 105.0, "roll": -0.6944179691174974, "pitch": 1.308114948354786, "yaw": 105.84228477486424, "gps": 0, "volt": 0.0, "battery_remaining": 100, "vel": 0.0, "mode": "MANUAL", "home_alt_abs": null, "link_key": "serial-1", "link_label": "COM6@115200", "link_kind": "serial"}}
{"timestamp": 1775538424.6376734, "datetime": "2026-04-07T09:07:04", "payload": {"lat": 0.0, "lon": 0.0, "alt": -13.09999942779541, "alt_abs": -13.05, "home_lat": null, "home_lon": null, "heading": 105.0, "roll": -0.6944179691174974, "pitch": 1.308114948354786, "yaw": 105.84228477486424, "gps": 0, "volt": 0.0, "battery_remaining": 100, "vel": 0.0, "mode": "MANUAL", "home_alt_abs": null, "link_key": "serial-1", "link_label": "COM6@115200", "link_kind": "serial"}}
{"timestamp": 1775538424.66848, "datetime": "2026-04-07T09:07:04", "payload": {"lat": 0.0, "lon": 0.0, "alt": -13.09999942779541, "alt_abs": -13.05, "home_lat": null, "home_lon": null, "heading": 105.0, "roll": -0.6944179691174974, "pitch": 1.308114948354786, "yaw": 105.84228477486424, "gps": 0, "volt": 0.0, "battery_remaining": 100, "vel": 0.0, "mode": "MANUAL", "home_alt_abs": null, "link_key": "serial-1", "link_label": "COM6@115200", "link_kind": "serial"}}
{"timestamp": 1775538424.700218, "datetime": "2026-04-07T09:07:04", "payload": {"lat": 0.0, "lon": 0.0, "alt": -13.09999942779541, "alt_abs": -13.05, "home_lat": null, "home_lon": null, "heading": 105.0, "roll": -0.6944179691174974, "pitch": 1.308114948354786, "yaw": 105.84228477486424, "gps": 0, "volt": 0.0, "battery_remaining": 100, "vel": 0.0, "mode": "MANUAL", "home_alt_abs": null, "link_key": "serial-1", "link_label": "COM6@115200", "link_kind": "serial"}}
{"timestamp": 1775538424.7322006, "datetime": "2026-04-07T09:07:04", "payload": {"lat": 0.0, "lon": 0.0, "alt": -13.09999942779541, "alt_abs": -13.05, "home_lat": null, "home_lon": null, "heading": 105.0, "roll": -0.6944179691174974, "pitch": 1.308114948354786, "yaw": 105.84228477486424, "gps": 0, "volt": 0.0, "battery_remaining": 100, "vel": 0.0, "mode": "MANUAL", "home_alt_abs": null, "link_key": "serial-1", "link_label": "COM6@115200", "link_kind": "serial"}}
